{
"type": "FeatureCollection",
"name": "la_env_non-profits",
"crs": { "type": "name", "properties": { "name": "urn:ogc:def:crs:OGC:1.3:CRS84" } },
"features": [
{ "type": "Feature", "properties": { "name": "City Plants", "website": "https://www.cityplants.org/our-story/", "description": "coordinate tree planting", "latitude": "34.05387257", "longitude": "-118.242793", "address": "200 N. Spring Street, M-152", "zipcode": "90012", "climate risk mitigated": "heat risk", "contact": "(213)473-9950", "availability": null }, "geometry": { "type": "Point", "coordinates": [ -118.242793, 34.05387257 ] } },
{ "type": "Feature", "properties": { "name": "Northeast Trees", "website": "https://www.northeasttrees.org/", "description": "urban forestry/habitat restoration", "latitude": "34.08559326", "longitude": "-118.2250192", "address": "570 W. Avenue 26, Suite 200", "zipcode": "90065", "climate risk mitigated": "heat risk", "contact": "(323)441-8634", "availability": null }, "geometry": { "type": "Point", "coordinates": [ -118.2250192, 34.08559326 ] } },
{ "type": "Feature", "properties": { "name": "TreePeople", "website": "https://www.treepeople.org/", "description": "helps communities plant vegetation", "latitude": "34.12915159", "longitude": "-118.4062608", "address": "12601 Mulholland Drive", "zipcode": "90210", "climate risk mitigated": "heat risk", "contact": "info@treepeople.org,(818)753-4600", "availability": null }, "geometry": { "type": "Point", "coordinates": [ -118.4062608, 34.12915159 ] } },
{ "type": "Feature", "properties": { "name": "Crop Swap LA", "website": "https://www.cropswapla.org/", "description": "garden installations/microfarm management", "latitude": "34.01858213", "longitude": "-118.3303985", "address": "3753 Degnan Blvd", "zipcode": "90018", "climate risk mitigated": "food insecurity", "contact": "info@cropswapla.org,(213)878-2752", "availability": null }, "geometry": { "type": "Point", "coordinates": [ -118.3303985, 34.01858213 ] } },
{ "type": "Feature", "properties": { "name": "LA Community Garden Council", "website": "https://lagardencouncil.org/find-a-garden/", "description": "community gardens", "latitude": "34.09135657", "longitude": "-118.286405", "address": "1110 N Virgil Avenue #381", "zipcode": "90029", "climate risk mitigated": "food insecurity", "contact": "info.lacgc@gmail.com,(323)902-7167", "availability": null }, "geometry": { "type": "Point", "coordinates": [ -118.286405, 34.09135657 ] } },
{ "type": "Feature", "properties": { "name": "LA Compost", "website": "https://www.lacompost.org/", "description": "promotes composting and urban agriculture", "latitude": "34.09746047", "longitude": "-118.2091339", "address": "221 W Avenue 45", "zipcode": "90065", "climate risk mitigated": "food waste", "contact": "info@lacompost.org", "availability": null }, "geometry": { "type": "Point", "coordinates": [ -118.2091339, 34.09746047 ] } },
{ "type": "Feature", "properties": { "name": "Food Forward", "website": "https://foodforward.org/who-we-are/", "description": "fighting hunger and reducing food waste", "latitude": "34.20540349", "longitude": "-118.4221278", "address": "7412 Fulton Ave", "zipcode": "91605", "climate risk mitigated": "food waste", "contact": "info@foodforward.org,(818)764-1022", "availability": null }, "geometry": { "type": "Point", "coordinates": [ -118.4221278, 34.20540349 ] } },
{ "type": "Feature", "properties": { "name": "Food Cycle LA", "website": "https://www.foodcyclela.org/", "description": "diverting food from landfills by redistributing", "latitude": "34.09975818", "longitude": "-118.3344732", "address": "6636 Selma Ave", "zipcode": "90028", "climate risk mitigated": "food waste", "contact": "(323)897-9696", "availability": null }, "geometry": { "type": "Point", "coordinates": [ -118.3344732, 34.09975818 ] } },
{ "type": "Feature", "properties": { "name": "Food Finders", "website": "https://foodfinders.org/", "description": "food rescue organization", "latitude": "33.80914829", "longitude": "-118.0667413", "address": "10539 Humbolt St, Los Alamitos", "zipcode": "90720", "climate risk mitigated": "food insecurity", "contact": "info@foodfinders.org,(562)283-1400", "availability": null }, "geometry": { "type": "Point", "coordinates": [ -118.0667413, 33.80914829 ] } },
{ "type": "Feature", "properties": { "name": "RootDown LA", "website": "https://www.rootdownla.org/our-story", "description": "urban agriculture and food justice", "latitude": "34.01671455", "longitude": "-118.2706011", "address": "180 East 35th Street", "zipcode": "90011", "climate risk mitigated": "food insecurity", "contact": "info@rootdownla.org", "availability": null }, "geometry": { "type": "Point", "coordinates": [ -118.2706011, 34.01671455 ] } },
{ "type": "Feature", "properties": { "name": "GrowGood", "website": "https://www.grow-good.org/mission", "description": "transform urban land into gardens", "latitude": "33.98994846", "longitude": "-118.1699075", "address": "5600 Rickenbacker Road", "zipcode": "90201", "climate risk mitigated": "heat risk,food insecurity", "contact": "info@grow-good.org", "availability": null }, "geometry": { "type": "Point", "coordinates": [ -118.1699075, 33.98994846 ] } },
{ "type": "Feature", "properties": { "name": "Roots for Peace", "website": "https://rootsforpeace.wordpress.com/about-us/", "description": "transforming vacant lots into community spaces", "latitude": "34.04514324", "longitude": "-118.2514839", "address": "634 South Spring Street", "zipcode": "90014", "climate risk mitigated": "heat risk,food insecurity", "contact": "cgonzalez@afsc.org,(213)489-1900 *112", "availability": null }, "geometry": { "type": "Point", "coordinates": [ -118.2514839, 34.04514324 ] } },
{ "type": "Feature", "properties": { "name": "Community Services Unlimited", "website": "https://csuinc.org/", "description": "focuses on food justice/urban agriculture", "latitude": "33.97958461", "longitude": "-118.2921361", "address": "6569 S Vermont Ave", "zipcode": "90044", "climate risk mitigated": "heat risk,food insecurity", "contact": "csu@csuinc.org,(213)746-1216", "availability": null }, "geometry": { "type": "Point", "coordinates": [ -118.2921361, 33.97958461 ] } },
{ "type": "Feature", "properties": { "name": "East Yard Communities for Environmental Justice", "website": "https://eycej.org/", "description": "workshops that impact health", "latitude": "34.00510963", "longitude": "-118.1655266", "address": "2317 S Atlantic Blvd", "zipcode": "90040", "climate risk mitigated": "environmental injustice", "contact": "info@eycej.org", "availability": null }, "geometry": { "type": "Point", "coordinates": [ -118.1655266, 34.00510963 ] } },
{ "type": "Feature", "properties": { "name": "Los Angeles Eco-Village", "website": "https://laecovillage.org/", "description": "neighborhood to live more ecologically", "latitude": "34.07330389", "longitude": "-118.2906646", "address": "117 Bimini Place #221", "zipcode": "90004", "climate risk mitigated": "environmental injustice", "contact": "crsp@igc.org", "availability": null }, "geometry": { "type": "Point", "coordinates": [ -118.2906646, 34.07330389 ] } },
{ "type": "Feature", "properties": { "name": "Proyecto Pastoral at Dolores Mission", "website": "https://www.proyectopastoral.org/", "description": "community transformational change in justice/opportunity", "latitude": "34.04908045", "longitude": "-118.2281856", "address": "135 N. Mission Rd", "zipcode": "90033", "climate risk mitigated": "food insecurity", "contact": "admin@proyectopastoral.org,(323)881-0018", "availability": null }, "geometry": { "type": "Point", "coordinates": [ -118.2281856, 34.04908045 ] } },
{ "type": "Feature", "properties": { "name": "Union Rescue Mission", "website": "https://urm.org/", "description": "rescue missions", "latitude": "34.04331329", "longitude": "-118.2448457", "address": "545 S. San Pedro St.", "zipcode": "90013", "climate risk mitigated": "food insecurity", "contact": "volunteer@urm.org,(213)347-6300", "availability": null }, "geometry": { "type": "Point", "coordinates": [ -118.2448457, 34.04331329 ] } },
{ "type": "Feature", "properties": { "name": "Loyola Marymount University Food Pantry", "website": "https://studentaffairs.lmu.edu/activities/centerforserviceandaction/lmufoodpantry/", "description": "provide free food to LMU student due to financial hardships.", "latitude": "33.9707149", "longitude": "-118.4172176", "address": "1 LMU Dr Charles Von der Ahe Building", "zipcode": "90045", "climate risk mitigated": "food insecurity", "contact": "foodpantry@lmu.edu", "availability": null }, "geometry": { "type": "Point", "coordinates": [ -118.4172176, 33.9707149 ] } },
{ "type": "Feature", "properties": { "name": "Downtown Womenâ€™s Center", "website": "https://downtownwomenscenter.org/", "description": "serving women/gender diverse experiencing homelessness", "latitude": "34.04484775", "longitude": "-118.2431735", "address": "442 S. San Pedro Street", "zipcode": "95110", "climate risk mitigated": "food insecurity", "contact": "Info@DowntownWomensCenter.org,(213)680-0600", "availability": null }, "geometry": { "type": "Point", "coordinates": [ -118.2431735, 34.04484775 ] } },
{ "type": "Feature", "properties": { "name": "New Directions for Veterans", "website": "https://ndvets.org/", "description": "Veterans mission", "latitude": "34.0567579", "longitude": "-118.462092", "address": "11303 Wilshire Blvd. VA Campus, Bldg 116", "zipcode": "91762", "climate risk mitigated": "food insecurity", "contact": "info@ndvets.org,(310)914-4045", "availability": null }, "geometry": { "type": "Point", "coordinates": [ -118.462092, 34.0567579 ] } }
]
}
